{"type": "FeatureCollection", "features": [{"type": "Feature", "geometry": {"type": "Point", "coordinates": [106.75653422361184, 10.851079312661607]}, "properties": {"Store name": "The Pizza Company - V\u00f5 V\u0103n Ng\u00e2n", "Address": "26-28-30 V\u00f5 V\u0103n Ng\u00e2n, Ph\u01b0\u1eddng Tr\u01b0\u1eddng Th\u1ecd, Qu\u1eadn Th\u1ee7 \u0110\u1ee9c, H\u1ed3 Ch\u00ed Minh", "Brand": "The Pizza Company"}}, {"type": "Feature", "geometry": {"type": "Point", "coordinates": [106.62841781166992, 10.79375584784278]}, "properties": {"Store name": "The Pizza Company - T\u00e2n S\u01a1n Nh\u00ec", "Address": "456A T\u00e2n S\u01a1n Nh\u00ec, Ph\u01b0\u1eddng T\u00e2n Qu\u00fd, Qu\u1eadn T\u00e2n Ph\u00fa, H\u1ed3 Ch\u00ed Minh", "Brand": "The Pizza Company"}}, {"type": "Feature", "geometry": {"type": "Point", "coordinates": [106.64538822516164, 10.749713344065285]}, "properties": {"Store name": "The Pizza Company - H\u1eadu Giang", "Address": "167 H\u1eadu Giang, Ph\u01b0\u1eddng 5, Qu\u1eadn 6, H\u1ed3 Ch\u00ed Minh", "Brand": "The Pizza Company"}}, {"type": "Feature", "geometry": {"type": "Point", "coordinates": [106.72186515399818, 10.828156710321649]}, "properties": {"Store name": "The Pizza Company - Sense City Ph\u1ea1m V\u0103n \u0110\u1ed3ng", "Address": "TTTM Sense City Ph\u1ea1m V\u0103n \u0110\u1ed3ng - Giga Mall: L3-03, 240-242 Kha V\u1ea1n C\u00e2n - Ph\u1ea1m V\u0103n \u0110\u1ed3ng, Ph\u01b0\u1eddng Hi\u1ec7p B\u00ecnh Ch\u00e1nh, Qu\u1eadn Th\u1ee7 \u0110\u1ee9c, H\u1ed3 Ch\u00ed Minh", "Brand": "The Pizza Company"}}, {"type": "Feature", "geometry": {"type": "Point", "coordinates": [106.61448449632576, 10.775642842842307]}, "properties": {"Store name": "The Pizza Company - L\u00ea V\u0103n Qu\u1edbi", "Address": "239 L\u00ea V\u0103n Qu\u1edbi, Ph\u01b0\u1eddng B\u00ecnh Tr\u1ecb \u0110\u00f4ng, Qu\u1eadn B\u00ecnh T\u00e2n, H\u1ed3 Ch\u00ed Minh", "Brand": "The Pizza Company"}}, {"type": "Feature", "geometry": {"type": "Point", "coordinates": [106.6559060809813, 10.733036635762794]}, "properties": {"Store name": "The Pizza Company - Qu\u1ed1c L\u1ed9 50", "Address": "310 -312 Qu\u1ed1c L\u1ed9 50, Ph\u01b0\u1eddng 6, Qu\u1eadn 8, H\u1ed3 Ch\u00ed Minh", "Brand": "The Pizza Company"}}, {"type": "Feature", "geometry": {"type": "Point", "coordinates": [106.63883252330947, 10.768869167043889]}, "properties": {"Store name": "The Pizza Company - H\u00f2a B\u00ecnh", "Address": "78D-80 H\u00f2a B\u00ecnh, Ph\u01b0\u1eddng 5, Qu\u1eadn 11, H\u1ed3 Ch\u00ed Minh", "Brand": "The Pizza Company"}}, {"type": "Feature", "geometry": {"type": "Point", "coordinates": [106.6649522116704, 10.845823744724472]}, "properties": {"Store name": "The Pizza Company - Th\u1ed1ng Nh\u1ea5t", "Address": "452A Th\u1ed1ng Nh\u1ea5t, Ph\u01b0\u1eddng 16, Qu\u1eadn G\u00f2 V\u1ea5p, H\u1ed3 Ch\u00ed Minh", "Brand": "The Pizza Company"}}, {"type": "Feature", "geometry": {"type": "Point", "coordinates": [106.66087416723654, 10.799749933504456]}, "properties": {"Store name": "The Pizza Company - L\u00ea V\u0103n S\u1ef9 2", "Address": "515 L\u00ea V\u0103n S\u1ef9, Ph\u01b0\u1eddng 2, Qu\u1eadn T\u00e2n B\u00ecnh, H\u1ed3 Ch\u00ed Minh", "Brand": "The Pizza Company"}}, {"type": "Feature", "geometry": {"type": "Point", "coordinates": [106.74173372516198, 10.800908225993137]}, "properties": {"Store name": "The Pizza Company - Song H\u00e0nh", "Address": "81 Song H\u00e0nh, Ph\u01b0\u1eddng An Ph\u00fa, Qu\u1eadn 2, H\u1ed3 Ch\u00ed Minh", "Brand": "The Pizza Company"}}, {"type": "Feature", "geometry": {"type": "Point", "coordinates": [106.66965186748942, 10.738763744523323]}, "properties": {"Store name": "The Pizza Company - Ph\u1ea1m H\u00f9ng", "Address": "322B Ph\u1ea1m H\u00f9ng, Ph\u01b0\u1eddng 5, Qu\u1eadn 8, Th\u00e0nh ph\u1ed1 H\u1ed3 Ch\u00ed Minh", "Brand": "The Pizza Company"}}, {"type": "Feature", "geometry": {"type": "Point", "coordinates": [106.70879789632536, 10.726365227315526]}, "properties": {"Store name": "The Pizza Company - Nguy\u1ec5n \u0110\u1ee9c C\u1ea3nh", "Address": "101 Nguy\u1ec5n \u0110\u1ee9c C\u1ea3nh, Khu ph\u1ed1 Parkview - H19 - 2, Ph\u01b0\u1eddng T\u00e2n Phong, Qu\u1eadn 7, H\u1ed3 Ch\u00ed Minh", "Brand": "The Pizza Company"}}, {"type": "Feature", "geometry": {"type": "Point", "coordinates": [106.68197072516178, 10.766179629173214]}, "properties": {"Store name": "The Pizza Company - Nguy\u1ec5n Th\u1ecb Minh Khai", "Address": "506 - 508 Nguy\u1ec5n Th\u1ecb Minh Khai, Ph\u01b0\u1eddng 2, Qu\u1eadn 3, H\u1ed3 Ch\u00ed Minh", "Brand": "The Pizza Company"}}, {"type": "Feature", "geometry": {"type": "Point", "coordinates": [106.61576106748994, 10.801314342002382]}, "properties": {"Store name": "The Pizza Company - Aeon Mall T\u00e2n Ph\u00fa", "Address": "TTTM Aeon Mall T\u00e2n Ph\u00fa: T\u1ea7ng 3, 30 B\u1edd Bao T\u00e2n Th\u1eafng, Ph\u01b0\u1eddng S\u01a1n K\u1ef3, Qu\u1eadn T\u00e2n Ph\u00fa, H\u1ed3 Ch\u00ed Minh", "Brand": "The Pizza Company"}}, {"type": "Feature", "geometry": {"type": "Point", "coordinates": [106.74875863865388, 10.802305151055757]}, "properties": {"Store name": "The Pizza Company - Estella Place", "Address": "TTTM Estella Place: L4-6A-7B, 88 Song H\u00e0nh, Ph\u01b0\u1eddng An Ph\u00fa, Qu\u1eadn 2, H\u1ed3 Ch\u00ed Minh", "Brand": "The Pizza Company"}}, {"type": "Feature", "geometry": {"type": "Point", "coordinates": [106.71589852516196, 10.806327083790793]}, "properties": {"Store name": "The Pizza Company - Nguy\u1ec5n Gia Tr\u00ed (D2)", "Address": "183 Nguy\u1ec5n Gia Tr\u00ed, Ph\u01b0\u1eddng 25, Qu\u1eadn B\u00ecnh Th\u1ea1nh, H\u1ed3 Ch\u00ed Minh", "Brand": "The Pizza Company"}}, {"type": "Feature", "geometry": {"type": "Point", "coordinates": [106.64412526748995, 10.792149053677422]}, "properties": {"Store name": "The Pizza Company - B\u00e0u C\u00e1t", "Address": "207-209 B\u00e0u C\u00e1t, Ph\u01b0\u1eddng 13, Qu\u1eadn T\u00e2n B\u00ecnh, H\u1ed3 Ch\u00ed Minh", "Brand": "The Pizza Company"}}, {"type": "Feature", "geometry": {"type": "Point", "coordinates": [106.74229388283406, 10.803071518042852]}, "properties": {"Store name": "The Pizza Company - Vincom Th\u1ea3o \u0110i\u1ec1n", "Address": "TTTM Vincom Th\u1ea3o \u0110i\u1ec1n: 159 Xa L\u1ed9 H\u00e0 N\u1ed9i, Ph\u01b0\u1eddng Th\u1ea3o \u0110i\u1ec1n, Qu\u1eadn 2, H\u1ed3 Ch\u00ed Minh", "Brand": "The Pizza Company"}}, {"type": "Feature", "geometry": {"type": "Point", "coordinates": [106.71888382516146, 10.729252249839798]}, "properties": {"Store name": "The Pizza Company - Crescent Mall", "Address": "101 T\u00f4n D\u1eadt Ti\u00ean, Ph\u01b0\u1eddng T\u00e2n Ph\u00fa, Qu\u1eadn 7, H\u1ed3 Ch\u00ed Minh", "Brand": "The Pizza Company"}}, {"type": "Feature", "geometry": {"type": "Point", "coordinates": [106.6617539963258, 10.782944374405664]}, "properties": {"Store name": "The Pizza Company - C\u1eedu Long", "Address": "74 C\u1eedu Long (C\u01b0 X\u00e1 B\u1eafc H\u1ea3i), Ph\u01b0\u1eddng 15, Qu\u1eadn 10, TP.HCM", "Brand": "The Pizza Company"}}, {"type": "Feature", "geometry": {"type": "Point", "coordinates": [106.69552166748966, 10.767440548858024]}, "properties": {"Store name": "The Pizza Company - Nguy\u1ec5n Th\u00e1i H\u1ecdc", "Address": "105-107 Nguy\u1ec5n Th\u00e1i H\u1ecdc, Ph\u01b0\u1eddng C\u1ea7u \u00d4ng L\u00e3nh, Qu\u1eadn 1, H\u1ed3 Ch\u00ed Minh", "Brand": "The Pizza Company"}}, {"type": "Feature", "geometry": {"type": "Point", "coordinates": [106.72852232516163, 10.748777798323504]}, "properties": {"Store name": "The Pizza Company - Hu\u1ef3nh T\u1ea5n Ph\u00e1t", "Address": "346 Hu\u1ef3nh T\u1ea5n Ph\u00e1t, Ph\u01b0\u1eddng B\u00ecnh Thu\u1eadn, Qu\u1eadn 7, H\u1ed3 Ch\u00ed Minh", "Brand": "The Pizza Company"}}, {"type": "Feature", "geometry": {"type": "Point", "coordinates": [106.73642476934144, 10.712430742961262]}, "properties": {"Store name": "The Pizza Company - Co.op Mart Hu\u1ef3nh T\u1ea5n Ph\u00e1t", "Address": "Co.op Mart Hu\u1ef3nh T\u1ea5n Ph\u00e1t: 80/4A Hu\u1ef3nh T\u1ea5n Ph\u00e1t, Ph\u01b0\u1eddng Ph\u00fa M\u1ef9, Qu\u1eadn 7, H\u1ed3 Ch\u00ed Minh", "Brand": "The Pizza Company"}}, {"type": "Feature", "geometry": {"type": "Point", "coordinates": [106.6832955423583, 10.801636035505403]}, "properties": {"Store name": "The Pizza Company - Phan X\u00edch Long", "Address": "355 Phan X\u00edch Long, Ph\u01b0\u1eddng 1, Qu\u1eadn Ph\u00fa Nhu\u1eadn, H\u1ed3 Ch\u00ed Minh", "Brand": "The Pizza Company"}}, {"type": "Feature", "geometry": {"type": "Point", "coordinates": [106.66991973865365, 10.7706892054752]}, "properties": {"Store name": "The Pizza Company - V\u1ea1n H\u1ea1nh Mall", "Address": "TTTM V\u1ea1n H\u1ea1nh Mall: L6-06 ,11 S\u01b0 V\u1ea1n H\u1ea1nh, Ph\u01b0\u1eddng 12, Qu\u1eadn 10, H\u1ed3 Ch\u00ed Minh", "Brand": "The Pizza Company"}}, {"type": "Feature", "geometry": {"type": "Point", "coordinates": [106.63036274050576, 10.755298579360591]}, "properties": {"Store name": "The Pizza Company - B\u00e0 Hom", "Address": "64A1 - 64A2 B\u00e0 Hom, Ph\u01b0\u1eddng 13, Qu\u1eadn 6, H\u1ed3 Ch\u00ed Minh", "Brand": "The Pizza Company"}}, {"type": "Feature", "geometry": {"type": "Point", "coordinates": [106.69042175399817, 10.825388326705545]}, "properties": {"Store name": "The Pizza Company - Phan V\u0103n Tr\u1ecb", "Address": "527J Phan V\u0103n Tr\u1ecb, Ph\u01b0\u1eddng 5, Qu\u1eadn G\u00f2 V\u1ea5p, H\u1ed3 Ch\u00ed Minh", "Brand": "The Pizza Company"}}, {"type": "Feature", "geometry": {"type": "Point", "coordinates": [106.62280998283389, 10.78407859785714]}, "properties": {"Store name": "The Pizza Company - Nguy\u1ec5n S\u01a1n", "Address": "303F Nguy\u1ec5n S\u01a1n, Ph\u01b0\u1eddng Ph\u00fa Th\u1ea1nh, Qu\u1eadn T\u00e2n Ph\u00fa, H\u1ed3 Ch\u00ed Minh", "Brand": "The Pizza Company"}}, {"type": "Feature", "geometry": {"type": "Point", "coordinates": [106.69174301167006, 10.805081207325989]}, "properties": {"Store name": "The Pizza Company - Ho\u00e0ng Hoa Th\u00e1m", "Address": "10D Ho\u00e0ng Hoa Th\u00e1m, Ph\u01b0\u1eddng 7, Qu\u1eadn B\u00ecnh Th\u1ea1nh, H\u1ed3 Ch\u00ed Minh", "Brand": "The Pizza Company"}}, {"type": "Feature", "geometry": {"type": "Point", "coordinates": [106.67739095399794, 10.788121791417044]}, "properties": {"Store name": "The Pizza Company - L\u00ea V\u0103n S\u1ef9 1", "Address": "333 L\u00ea V\u0103n S\u1ef9, Ph\u01b0\u1eddng 13, Qu\u1eadn 3, H\u1ed3 Ch\u00ed Minh", "Brand": "The Pizza Company"}}, {"type": "Feature", "geometry": {"type": "Point", "coordinates": [106.65302023071835, 10.76913696740126]}, "properties": {"Store name": "The Pizza Company - L\u00ea \u0110\u1ea1i H\u00e0nh", "Address": "Chung c\u01b0 Ph\u00fa Th\u1ecd: L\u00f4 4 - Khu B - C\u0103n s\u1ed1 7, L\u00ea \u0110\u1ea1i H\u00e0nh, Ph\u01b0\u1eddng 11, Qu\u1eadn 11, H\u1ed3 Ch\u00ed Minh", "Brand": "The Pizza Company"}}, {"type": "Feature", "geometry": {"type": "Point", "coordinates": [106.66047121167036, 10.836310539848045]}, "properties": {"Store name": "The Pizza Company - Quang Trung", "Address": "638 Quang Trung, Ph\u01b0\u1eddng 11, Qu\u1eadn G\u00f2 V\u1ea5p, H\u1ed3 Ch\u00ed Minh", "Brand": "The Pizza Company"}}, {"type": "Feature", "geometry": {"type": "Point", "coordinates": [106.61310404050656, 10.864335010440405]}, "properties": {"Store name": "The Pizza Company - Nguy\u1ec5n \u1ea2nh Th\u1ee7", "Address": "75/3-75/4 Nguy\u1ec5n \u1ea2nh Th\u1ee7, \u1ea4p V\u1ea1n H\u1ea1nh, X\u00e3 Trung Ch\u00e1nh, Huy\u1ec7n H\u00f3c M\u00f4n, H\u1ed3 Ch\u00ed Minh", "Brand": "The Pizza Company"}}, {"type": "Feature", "geometry": {"type": "Point", "coordinates": [106.61499068283364, 10.752207737000846]}, "properties": {"Store name": "The Pizza Company - V\u00e0nh \u0110ai Trong", "Address": "313 \u2013 315 V\u00e0nh \u0110ai Trong, P.B\u00ecnh Tr\u1ecb \u0110\u00f4ng B, Q.B\u00ecnh T\u00e2n, TPHCM", "Brand": "The Pizza Company"}}, {"type": "Feature", "geometry": {"type": "Point", "coordinates": [106.6787278251614, 10.740618925251416]}, "properties": {"Store name": "The Pizza Company - Parc Mall", "Address": "T\u1ea7ng 3, TTTM Parc Mall, 547 - 549 T\u1ea1 Quang B\u1eedu ph\u01b0\u1eddng 4, Qu\u1eadn 8, TP.HCM", "Brand": "The Pizza Company"}}, {"type": "Feature", "geometry": {"type": "Point", "coordinates": [106.6838053687092, 10.768763900943268]}, "properties": {"Store name": "Chang - Cao Th\u1eafng", "Address": "04 Cao Th\u1eafng, P. 5, Q.3, TP.HCM", "Brand": "Chang"}}, {"type": "Feature", "geometry": {"type": "Point", "coordinates": [106.70882472080534, 10.727850946574614]}, "properties": {"Store name": "Chang - Nguy\u1ec5n \u0110\u1ee9c C\u1ea3nh", "Address": "SB8-1, M\u1ef9 Kh\u00e1nh 2, Nguy\u1ec5n \u0110\u1ee9c C\u1ea3nh, P. T\u00e2n Phong, Q.7, TP.HCM", "Brand": "Chang"}}, {"type": "Feature", "geometry": {"type": "Point", "coordinates": [106.72875358272186, 10.72283041943284]}, "properties": {"Store name": "Chang - C\u1ea3nh Vi\u00ean", "Address": "57 \u0110\u01b0\u1eddng C, Khu Nam Vi\u00ean-S2, Khu Ph\u1ed1 6, P. T\u00e2n Ph\u00fa, Q.7, TP.HCM", "Brand": "Chang"}}, {"type": "Feature", "geometry": {"type": "Point", "coordinates": [106.66950978272249, 10.770787746068017]}, "properties": {"Store name": "Chang - V\u1ea1n H\u1ea1nh Mall", "Address": "T\u1ea7ng 05, TTTM V\u1ea1n H\u1ea1nh, 11 S\u01b0 V\u1ea1n H\u1ea1nh, P. 12, Q.10, TP.HCM", "Brand": "Chang"}}, {"type": "Feature", "geometry": {"type": "Point", "coordinates": [106.65382622505116, 10.766740708791396]}, "properties": {"Store name": "Chang - L\u00ea \u0110\u1ea1i H\u00e0nh", "Address": "357D L\u00ea \u0110\u1ea1i H\u00e0nh, P. 11, Q. 11, TP. HCM", "Brand": "Chang"}}, {"type": "Feature", "geometry": {"type": "Point", "coordinates": [106.68342219806549, 10.801466141877444]}, "properties": {"Store name": "Chang - Phan X\u00edch Long", "Address": "347 Phan X\u00edch Long, P. 1, Q.Ph\u00fa Nhu\u1eadn, TP.HCM", "Brand": "Chang"}}, {"type": "Feature", "geometry": {"type": "Point", "coordinates": [106.6117641980648, 10.751821563627818]}, "properties": {"Store name": "Chang - B\u00ecnh T\u00e2n \u0110\u01b0\u1eddng s\u1ed1 7", "Address": "305 \u2013 307 \u0110\u01b0\u1eddng s\u1ed1 7, P. B\u00ecnh Tr\u1ecb \u0110\u00f4ng B, Q. B\u00ecnh T\u00e2n, TP.HCM", "Brand": "Chang"}}, {"type": "Feature", "geometry": {"type": "Point", "coordinates": [106.6475330557368, 10.800093998155118]}, "properties": {"Store name": "Chang - Ho\u00e0ng Hoa Th\u00e1m", "Address": "110 Ho\u00e0ng Hoa Th\u00e1m, P.12, Q.T\u00e2n B\u00ecnh, TP.HCM", "Brand": "Chang"}}, {"type": "Feature", "geometry": {"type": "Point", "coordinates": [106.66542053244966, 10.796682523421351]}, "properties": {"Store name": "Chang - L\u00ea V\u0103n S\u1ef9", "Address": "357 L\u00ea V\u0103n S\u1ef9, P. 01, Q. T\u00e2n B\u00ecnh, TP.HCM", "Brand": "Chang"}}, {"type": "Feature", "geometry": {"type": "Point", "coordinates": [106.67133895388766, 10.838109338572211]}, "properties": {"Store name": "Chang - Lotte Mart G\u00f2 V\u1ea5p", "Address": "1F-06A, T\u1ea7ng Tr\u1ec7t, TTTM LOTTE Mart, 242 Nguy\u1ec5n V\u0103n L\u01b0\u1ee3ng, P. 10, Q. G\u00f2 V\u1ea5p, TP.HCM", "Brand": "Chang"}}, {"type": "Feature", "geometry": {"type": "Point", "coordinates": [106.77068680121906, 10.849757882132035]}, "properties": {"Store name": "Chang - V\u00f5 V\u0103n Ng\u00e2n", "Address": "292 V\u00f5 V\u0103n Ng\u00e2n, P. B\u00ecnh Th\u1ecd, TP. Th\u1ee7 \u0110\u1ee9c, TP.HCM", "Brand": "Chang"}}, {"type": "Feature", "geometry": {"type": "Point", "coordinates": [106.7217306403945, 10.827976318781412]}, "properties": {"Store name": "Chang - Gigamall Ph\u1ea1m V\u0103n \u0110\u1ed3ng", "Address": "L2-02a, T\u1ea7ng 03, TTTM Giga Mall, 240 \u2013 242 Kha V\u1ea1n C\u00e2n, P. Hi\u1ec7p B\u00ecnh Ch\u00e1nh, TP. Th\u1ee7 \u0110\u1ee9c, TP.HCM", "Brand": "Chang"}}, {"type": "Feature", "geometry": {"type": "Point", "coordinates": [106.7157185036998, 10.805747688305257]}, "properties": {"Store name": "AKA - D2", "Address": "124 \u0110\u01b0\u1eddng D2, P.25, Qu\u1eadn B\u00ecnh Th\u1ea1nh, TP. HCM", "Brand": "AKA"}}, {"type": "Feature", "geometry": {"type": "Point", "coordinates": [106.72204593245006, 10.827980421357967]}, "properties": {"Store name": "AKA - Sense City Ph\u1ea1m V\u0103n \u0110\u1ed3ng", "Address": "T\u1ea7ng 2, TTTM Sense City, s\u1ed1 240 - 244 \u0110\u01b0\u1eddng Kha V\u1ea1n C\u00e2n, Ph\u01b0\u1eddng Hi\u1ec7p B\u00ecnh Ch\u00e1nh, Qu\u1eadn Th\u1ee7 \u0110\u1ee9c, TP.HCM.", "Brand": "AKA"}}, {"type": "Feature", "geometry": {"type": "Point", "coordinates": [106.67014060731287, 10.77073558678114]}, "properties": {"Store name": "AKA - V\u1ea1n H\u1ea1nh Mall", "Address": "T\u1ea7ng 6 V\u1ea1n H\u1ea1nh Mall, 11 S\u01b0 V\u1ea1n H\u1ea1nh, Ph\u01b0\u1eddng 12, Qu\u1eadn 10, TP. HCM", "Brand": "AKA"}}, {"type": "Feature", "geometry": {"type": "Point", "coordinates": [106.6729549325381, 10.83872394944939]}, "properties": {"Store name": "Dairy Queen - Lotte Go\u0300 V\u00e2\u0301p", "Address": "TTTM Lotte Mart G\u00f2 V\u1ea5p: T\u1ea7ng Tr\u1ec7t, 242 Nguy\u1ec5n V\u0103n L\u01b0\u1ee3ng, Ph\u01b0\u1eddng 10, Qu\u1eadn G\u00f2 V\u1ea5p, TP. H\u1ed3 Ch\u00ed Minh", "Brand": "Dairy Queen"}}, {"type": "Feature", "geometry": {"type": "Point", "coordinates": [106.66963206737994, 10.770884429196697]}, "properties": {"Store name": "Dairy Queen - V\u1ea1n H\u1ea1nh Mall", "Address": "TTTM V\u1ea1n H\u1ea1nh Mall: T\u1ea7ng 6, 11 S\u01b0 V\u1ea1n H\u1ea1nh, Ph\u01b0\u1eddng 12, Qu\u1eadn 10, TP. H\u1ed3 Ch\u00ed Minh", "Brand": "Dairy Queen"}}, {"type": "Feature", "geometry": {"type": "Point", "coordinates": [106.72161436738064, 10.82753806498756]}, "properties": {"Store name": "Dairy Queen - Ph\u1ea1m V\u0103n \u0110\u1ed3ng", "Address": "TTTM Sense City Ph\u1ea1m V\u0103n \u0110\u1ed3ng: T\u1ea7ng 2, 242 Ph\u1ea1m V\u0103n \u0110\u1ed3ng, Hi\u1ec7p B\u00ecnh Ch\u00e1nh, Qu\u1eadn Th\u1ee7 \u0110\u1ee9c, TP. H\u1ed3 Ch\u00ed Minh", "Brand": "Dairy Queen"}}, {"type": "Feature", "geometry": {"type": "Point", "coordinates": [106.74852723854468, 10.802019289348324]}, "properties": {"Store name": "Dairy Queen - Estella Place", "Address": "TTTM Estella Place: T\u1ea7ng 4, S\u1ed1 88 Song H\u00e0nh, Ph\u01b0\u1eddng An Ph\u00fa, Qu\u1eadn 2, TP. H\u1ed3 Ch\u00ed Minh", "Brand": "Dairy Queen"}}, {"type": "Feature", "geometry": {"type": "Point", "coordinates": [106.71864635388636, 10.728651406830007]}, "properties": {"Store name": "Dairy Queen - Crescent Mall", "Address": "TTTM Crescent Mall: T\u1ea7ng 5, 101 T\u00f4n D\u1eadt Ti\u00ean, Ph\u01b0\u1eddng T\u00e2n Ph\u00fa, Qu\u1eadn 7, TP. H\u1ed3 Ch\u00ed Minh", "Brand": "Dairy Queen"}}, {"type": "Feature", "geometry": {"type": "Point", "coordinates": [106.61794776738029, 10.801327850597032]}, "properties": {"Store name": "Dairy Queen - Aeon Mall T\u00e2n Ph\u00fa", "Address": "TTTM Aeon Mall T\u00e2n Ph\u00fa: T\u1ea7ng Tr\u1ec7t, S\u1ed1 30 \u0110\u01b0\u1eddng T\u00e2n Th\u1eafng, Ph\u01b0\u1eddng S\u01a1n K\u00ec, Qu\u1eadn T\u00e2n Ph\u00fa, TP. H\u1ed3 Ch\u00ed Minh", "Brand": "Dairy Queen"}}, {"type": "Feature", "geometry": {"type": "Point", "coordinates": [106.69371105388748, 10.82339818932826]}, "properties": {"Store name": "Dairy Queen - Emart G\u00f2 V\u1ea5p", "Address": "TTTM Emart: T\u1ea7ng Tr\u1ec7t, 366 Phan V\u0103n Tr\u1ecb, Ph\u01b0\u1eddng 5, Qu\u1eadn G\u00f2 V\u1ea5p, TP. H\u1ed3 Ch\u00ed Minh", "Brand": "Dairy Queen"}}, {"type": "Feature", "geometry": {"type": "Point", "coordinates": [106.67810342505094, 10.74045970764263]}, "properties": {"Store name": "Dairy Queen Parc Mall", "Address": "TTTM Topaz Elite: L4-K02A T\u1ea7ng 4, 547-549 T\u1ea1 Quang B\u1eedu, P. 4, Qu\u1eadn 8, TP. HCM", "Brand": "Dairy Queen"}}, {"type": "Feature", "geometry": {"type": "Point", "coordinates": [106.6628710538867, 10.755776766625605]}, "properties": {"Store name": "Swensen's - H\u00f9ng V\u01b0\u01a1ng Plaza", "Address": "126 \u0110. H\u1ed3ng B\u00e0ng, Ph\u01b0\u1eddng 12, Qu\u1eadn 5, Th\u00e0nh ph\u1ed1 H\u1ed3 Ch\u00ed Minh", "Brand": "Swensen's"}}, {"type": "Feature", "geometry": {"type": "Point", "coordinates": [106.69593029790518, 10.766658757403777]}, "properties": {"Store name": "Swensen's - Nguy\u1ec5n Th\u00e1i H\u1ecdc", "Address": "73 Nguy\u1ec5n Th\u00e1i H\u1ecdc, Qu\u1eadn 1, TP. H\u1ed3 Ch\u00ed Minh", "Brand": "Swensen's"}}, {"type": "Feature", "geometry": {"type": "Point", "coordinates": [106.66965575388689, 10.77086930973943]}, "properties": {"Store name": "Swensen's - V\u1ea1n H\u1ea1nh Mall", "Address": "TTTM V\u1ea1n H\u1ea1nh Mall: Gian 2-02, S\u1ed1 11 S\u01b0 V\u1ea1n H\u1ea1nh, Qu\u1eadn 10, TP. H\u1ed3 Ch\u00ed Minh", "Brand": "Swensen's"}}, {"type": "Feature", "geometry": {"type": "Point", "coordinates": [106.67876052276571, 10.7403993666222]}, "properties": {"Store name": "Swensen's Parc Mall", "Address": "TTTM Parc Mall, L\u1ea7u 2 - K01, 547-549 T\u1ea1 Quang B\u1eedu, P. 4, Qu\u1eadn 8, TP. HCM", "Brand": "Swensen's"}}, {"type": "Feature", "geometry": {"type": "Point", "coordinates": [NaN, NaN]}, "properties": {"Store name": NaN, "Address": NaN, "Brand": NaN}}, {"type": "Feature", "geometry": {"type": "Point", "coordinates": [NaN, NaN]}, "properties": {"Store name": NaN, "Address": NaN, "Brand": NaN}}, {"type": "Feature", "geometry": {"type": "Point", "coordinates": [NaN, NaN]}, "properties": {"Store name": NaN, "Address": NaN, "Brand": NaN}}, {"type": "Feature", "geometry": {"type": "Point", "coordinates": [NaN, NaN]}, "properties": {"Store name": NaN, "Address": NaN, "Brand": NaN}}, {"type": "Feature", "geometry": {"type": "Point", "coordinates": [NaN, NaN]}, "properties": {"Store name": NaN, "Address": NaN, "Brand": NaN}}, {"type": "Feature", "geometry": {"type": "Point", "coordinates": [NaN, NaN]}, "properties": {"Store name": NaN, "Address": NaN, "Brand": NaN}}, {"type": "Feature", "geometry": {"type": "Point", "coordinates": [NaN, NaN]}, "properties": {"Store name": NaN, "Address": NaN, "Brand": NaN}}, {"type": "Feature", "geometry": {"type": "Point", "coordinates": [NaN, NaN]}, "properties": {"Store name": NaN, "Address": NaN, "Brand": NaN}}, {"type": "Feature", "geometry": {"type": "Point", "coordinates": [NaN, NaN]}, "properties": {"Store name": NaN, "Address": NaN, "Brand": NaN}}, {"type": "Feature", "geometry": {"type": "Point", "coordinates": [NaN, NaN]}, "properties": {"Store name": NaN, "Address": NaN, "Brand": NaN}}, {"type": "Feature", "geometry": {"type": "Point", "coordinates": [NaN, NaN]}, "properties": {"Store name": NaN, "Address": NaN, "Brand": NaN}}, {"type": "Feature", "geometry": {"type": "Point", "coordinates": [NaN, NaN]}, "properties": {"Store name": NaN, "Address": NaN, "Brand": NaN}}, {"type": "Feature", "geometry": {"type": "Point", "coordinates": [NaN, NaN]}, "properties": {"Store name": NaN, "Address": NaN, "Brand": NaN}}, {"type": "Feature", "geometry": {"type": "Point", "coordinates": [NaN, NaN]}, "properties": {"Store name": NaN, "Address": NaN, "Brand": NaN}}, {"type": "Feature", "geometry": {"type": "Point", "coordinates": [NaN, NaN]}, "properties": {"Store name": NaN, "Address": NaN, "Brand": NaN}}, {"type": "Feature", "geometry": {"type": "Point", "coordinates": [NaN, NaN]}, "properties": {"Store name": NaN, "Address": NaN, "Brand": NaN}}, {"type": "Feature", "geometry": {"type": "Point", "coordinates": [NaN, NaN]}, "properties": {"Store name": NaN, "Address": NaN, "Brand": NaN}}, {"type": "Feature", "geometry": {"type": "Point", "coordinates": [NaN, NaN]}, "properties": {"Store name": NaN, "Address": NaN, "Brand": NaN}}, {"type": "Feature", "geometry": {"type": "Point", "coordinates": [NaN, NaN]}, "properties": {"Store name": NaN, "Address": NaN, "Brand": NaN}}, {"type": "Feature", "geometry": {"type": "Point", "coordinates": [NaN, NaN]}, "properties": {"Store name": NaN, "Address": NaN, "Brand": NaN}}, {"type": "Feature", "geometry": {"type": "Point", "coordinates": [NaN, NaN]}, "properties": {"Store name": NaN, "Address": NaN, "Brand": NaN}}, {"type": "Feature", "geometry": {"type": "Point", "coordinates": [NaN, NaN]}, "properties": {"Store name": NaN, "Address": NaN, "Brand": NaN}}, {"type": "Feature", "geometry": {"type": "Point", "coordinates": [NaN, NaN]}, "properties": {"Store name": NaN, "Address": NaN, "Brand": NaN}}, {"type": "Feature", "geometry": {"type": "Point", "coordinates": [NaN, NaN]}, "properties": {"Store name": NaN, "Address": NaN, "Brand": NaN}}, {"type": "Feature", "geometry": {"type": "Point", "coordinates": [NaN, NaN]}, "properties": {"Store name": NaN, "Address": NaN, "Brand": NaN}}, {"type": "Feature", "geometry": {"type": "Point", "coordinates": [NaN, NaN]}, "properties": {"Store name": NaN, "Address": NaN, "Brand": NaN}}, {"type": "Feature", "geometry": {"type": "Point", "coordinates": [NaN, NaN]}, "properties": {"Store name": NaN, "Address": NaN, "Brand": NaN}}, {"type": "Feature", "geometry": {"type": "Point", "coordinates": [NaN, NaN]}, "properties": {"Store name": NaN, "Address": NaN, "Brand": NaN}}, {"type": "Feature", "geometry": {"type": "Point", "coordinates": [NaN, NaN]}, "properties": {"Store name": NaN, "Address": NaN, "Brand": NaN}}, {"type": "Feature", "geometry": {"type": "Point", "coordinates": [NaN, NaN]}, "properties": {"Store name": NaN, "Address": NaN, "Brand": NaN}}, {"type": "Feature", "geometry": {"type": "Point", "coordinates": [NaN, NaN]}, "properties": {"Store name": NaN, "Address": NaN, "Brand": NaN}}, {"type": "Feature", "geometry": {"type": "Point", "coordinates": [NaN, NaN]}, "properties": {"Store name": NaN, "Address": NaN, "Brand": NaN}}, {"type": "Feature", "geometry": {"type": "Point", "coordinates": [NaN, NaN]}, "properties": {"Store name": NaN, "Address": NaN, "Brand": NaN}}, {"type": "Feature", "geometry": {"type": "Point", "coordinates": [NaN, NaN]}, "properties": {"Store name": NaN, "Address": NaN, "Brand": NaN}}, {"type": "Feature", "geometry": {"type": "Point", "coordinates": [NaN, NaN]}, "properties": {"Store name": NaN, "Address": NaN, "Brand": NaN}}, {"type": "Feature", "geometry": {"type": "Point", "coordinates": [NaN, NaN]}, "properties": {"Store name": NaN, "Address": NaN, "Brand": NaN}}, {"type": "Feature", "geometry": {"type": "Point", "coordinates": [NaN, NaN]}, "properties": {"Store name": NaN, "Address": NaN, "Brand": NaN}}]}